{
"type": "FeatureCollection",
"crs": { "type": "name", "properties": { "name": "urn:ogc:def:crs:OGC:1.3:CRS84" } },
"features": [
{ "type": "Feature", "id": 1, "properties": { "code": "62447", "id": 1, "metadata": "https://geocatalogue.hautsdefrance.fr/geonetwork/srv/fre/catalog.search#/metadata/894a0a8d-5ac9-469c-a12b-7f40ca4a7a3a", "nom": "HESDIN", "nom_min": "Hesdin" }, "geometry": { "type": "Point", "coordinates": [ 2.038175, 50.374122 ] } },
{ "type": "Feature", "id": 2, "properties": { "code": "62361", "id": 2, "metadata": "https://geocatalogue.hautsdefrance.fr/geonetwork/srv/fre/catalog.search#/metadata/894a0a8d-5ac9-469c-a12b-7f40ca4a7a3a", "nom": "FRÉVENT", "nom_min": "Frévent" }, "geometry": { "type": "Point", "coordinates": [ 2.293033, 50.270176 ] } },
{ "type": "Feature", "id": 3, "properties": { "code": "62364", "id": 3, "metadata": "https://geocatalogue.hautsdefrance.fr/geonetwork/srv/fre/catalog.search#/metadata/894a0a8d-5ac9-469c-a12b-7f40ca4a7a3a", "nom": "FRUGES", "nom_min": "Fruges" }, "geometry": { "type": "Point", "coordinates": [ 2.123492, 50.512757 ] } },
{ "type": "Feature", "id": 4, "properties": { "code": "62560", "id": 4, "metadata": "https://geocatalogue.hautsdefrance.fr/geonetwork/srv/fre/catalog.search#/metadata/894a0a8d-5ac9-469c-a12b-7f40ca4a7a3a", "nom": "MARQUISE", "nom_min": "Marquise" }, "geometry": { "type": "Point", "coordinates": [ 1.700022, 50.812671 ] } },
{ "type": "Feature", "id": 5, "properties": { "code": "62563", "id": 5, "metadata": "https://geocatalogue.hautsdefrance.fr/geonetwork/srv/fre/catalog.search#/metadata/894a0a8d-5ac9-469c-a12b-7f40ca4a7a3a", "nom": "MAZINGARBE", "nom_min": "Mazingarbe" }, "geometry": { "type": "Point", "coordinates": [ 2.724919, 50.468626 ] } },
{ "type": "Feature", "id": 6, "properties": { "code": "62516", "id": 6, "metadata": "https://geocatalogue.hautsdefrance.fr/geonetwork/srv/fre/catalog.search#/metadata/894a0a8d-5ac9-469c-a12b-7f40ca4a7a3a", "nom": "LILLERS", "nom_min": "Lillers" }, "geometry": { "type": "Point", "coordinates": [ 2.482559, 50.561543 ] } },
{ "type": "Feature", "id": 7, "properties": { "code": "62534", "id": 7, "metadata": "https://geocatalogue.hautsdefrance.fr/geonetwork/srv/fre/catalog.search#/metadata/894a0a8d-5ac9-469c-a12b-7f40ca4a7a3a", "nom": "LUMBRES", "nom_min": "Lumbres" }, "geometry": { "type": "Point", "coordinates": [ 2.117033, 50.704714 ] } },
{ "type": "Feature", "id": 8, "properties": { "code": "62767", "id": 8, "metadata": "https://geocatalogue.hautsdefrance.fr/geonetwork/srv/fre/catalog.search#/metadata/894a0a8d-5ac9-469c-a12b-7f40ca4a7a3a", "nom": "SAINT-POL-SUR-TERNOISE", "nom_min": "Saint-Pol-sur-Ternoise" }, "geometry": { "type": "Point", "coordinates": [ 2.350024, 50.388504 ] } },
{ "type": "Feature", "id": 9, "properties": { "code": "62773", "id": 9, "metadata": "https://geocatalogue.hautsdefrance.fr/geonetwork/srv/fre/catalog.search#/metadata/894a0a8d-5ac9-469c-a12b-7f40ca4a7a3a", "nom": "SAMER", "nom_min": "Samer" }, "geometry": { "type": "Point", "coordinates": [ 1.754829, 50.633792 ] } },
{ "type": "Feature", "id": 10, "properties": { "code": "62588", "id": 10, "metadata": "https://geocatalogue.hautsdefrance.fr/geonetwork/srv/fre/catalog.search#/metadata/894a0a8d-5ac9-469c-a12b-7f40ca4a7a3a", "nom": "MONTREUIL-SUR-MER", "nom_min": "Montreuil-sur-Mer" }, "geometry": { "type": "Point", "coordinates": [ 1.771876, 50.465529 ] } },
{ "type": "Feature", "id": 11, "properties": { "code": "62758", "id": 11, "metadata": "https://geocatalogue.hautsdefrance.fr/geonetwork/srv/fre/catalog.search#/metadata/894a0a8d-5ac9-469c-a12b-7f40ca4a7a3a", "nom": "SAINT-MARTIN-BOULOGNE", "nom_min": "Saint-Martin-Boulogne" }, "geometry": { "type": "Point", "coordinates": [ 1.647346, 50.723609 ] } },
{ "type": "Feature", "id": 12, "properties": { "code": "62907", "id": 12, "metadata": "https://geocatalogue.hautsdefrance.fr/geonetwork/srv/fre/catalog.search#/metadata/894a0a8d-5ac9-469c-a12b-7f40ca4a7a3a", "nom": "LIBERCOURT", "nom_min": "Libercourt" }, "geometry": { "type": "Point", "coordinates": [ 2.999955, 50.482576 ] } },
{ "type": "Feature", "id": 13, "properties": { "code": "80010", "id": 13, "metadata": "https://geocatalogue.hautsdefrance.fr/geonetwork/srv/fre/catalog.search#/metadata/894a0a8d-5ac9-469c-a12b-7f40ca4a7a3a", "nom": "AILLY-SUR-NOYE", "nom_min": "Ailly-sur-Noye" }, "geometry": { "type": "Point", "coordinates": [ 2.346556, 49.746599 ] } },
{ "type": "Feature", "id": 14, "properties": { "code": "62893", "id": 14, "metadata": "https://geocatalogue.hautsdefrance.fr/geonetwork/srv/fre/catalog.search#/metadata/894a0a8d-5ac9-469c-a12b-7f40ca4a7a3a", "nom": "WIMEREUX", "nom_min": "Wimereux" }, "geometry": { "type": "Point", "coordinates": [ 1.614472, 50.780278 ] } },
{ "type": "Feature", "id": 15, "properties": { "code": "62894", "id": 15, "metadata": "https://geocatalogue.hautsdefrance.fr/geonetwork/srv/fre/catalog.search#/metadata/894a0a8d-5ac9-469c-a12b-7f40ca4a7a3a", "nom": "WIMILLE", "nom_min": "Wimille" }, "geometry": { "type": "Point", "coordinates": [ 1.64202, 50.764703 ] } },
{ "type": "Feature", "id": 16, "properties": { "code": "80182", "id": 16, "metadata": "https://geocatalogue.hautsdefrance.fr/geonetwork/srv/fre/catalog.search#/metadata/894a0a8d-5ac9-469c-a12b-7f40ca4a7a3a", "nom": "CAYEUX-SUR-MER", "nom_min": "Cayeux-sur-Mer" }, "geometry": { "type": "Point", "coordinates": [ 1.515829, 50.176769 ] } },
{ "type": "Feature", "id": 17, "properties": { "code": "80186", "id": 17, "metadata": "https://geocatalogue.hautsdefrance.fr/geonetwork/srv/fre/catalog.search#/metadata/894a0a8d-5ac9-469c-a12b-7f40ca4a7a3a", "nom": "CHAULNES", "nom_min": "Chaulnes" }, "geometry": { "type": "Point", "coordinates": [ 2.800943, 49.817538 ] } },
{ "type": "Feature", "id": 18, "properties": { "code": "80013", "id": 18, "metadata": "https://geocatalogue.hautsdefrance.fr/geonetwork/srv/fre/catalog.search#/metadata/894a0a8d-5ac9-469c-a12b-7f40ca4a7a3a", "nom": "AIRAINES", "nom_min": "Airaines" }, "geometry": { "type": "Point", "coordinates": [ 1.944742, 49.972106 ] } },
{ "type": "Feature", "id": 19, "properties": { "code": "80016", "id": 19, "metadata": "https://geocatalogue.hautsdefrance.fr/geonetwork/srv/fre/catalog.search#/metadata/894a0a8d-5ac9-469c-a12b-7f40ca4a7a3a", "nom": "ALBERT", "nom_min": "Albert" }, "geometry": { "type": "Point", "coordinates": [ 2.648832, 50.0039 ] } },
{ "type": "Feature", "id": 20, "properties": { "code": "80222", "id": 20, "metadata": "https://geocatalogue.hautsdefrance.fr/geonetwork/srv/fre/catalog.search#/metadata/894a0a8d-5ac9-469c-a12b-7f40ca4a7a3a", "nom": "CRÉCY-EN-PONTHIEU", "nom_min": "Crécy-en-Ponthieu" }, "geometry": { "type": "Point", "coordinates": [ 1.845113, 50.240387 ] } },
{ "type": "Feature", "id": 21, "properties": { "code": "80253", "id": 21, "metadata": "https://geocatalogue.hautsdefrance.fr/geonetwork/srv/fre/catalog.search#/metadata/894a0a8d-5ac9-469c-a12b-7f40ca4a7a3a", "nom": "DOULLENS", "nom_min": "Doullens" }, "geometry": { "type": "Point", "coordinates": [ 2.34628, 50.163343 ] } },
{ "type": "Feature", "id": 22, "properties": { "code": "80211", "id": 22, "metadata": "https://geocatalogue.hautsdefrance.fr/geonetwork/srv/fre/catalog.search#/metadata/894a0a8d-5ac9-469c-a12b-7f40ca4a7a3a", "nom": "CONTY", "nom_min": "Conty" }, "geometry": { "type": "Point", "coordinates": [ 2.144565, 49.750069 ] } },
{ "type": "Feature", "id": 23, "properties": { "code": "80212", "id": 23, "metadata": "https://geocatalogue.hautsdefrance.fr/geonetwork/srv/fre/catalog.search#/metadata/894a0a8d-5ac9-469c-a12b-7f40ca4a7a3a", "nom": "CORBIE", "nom_min": "Corbie" }, "geometry": { "type": "Point", "coordinates": [ 2.494965, 49.920356 ] } },
{ "type": "Feature", "id": 24, "properties": { "code": "80373", "id": 24, "metadata": "https://geocatalogue.hautsdefrance.fr/geonetwork/srv/fre/catalog.search#/metadata/894a0a8d-5ac9-469c-a12b-7f40ca4a7a3a", "nom": "GAMACHES", "nom_min": "Gamaches" }, "geometry": { "type": "Point", "coordinates": [ 1.556548, 49.99481 ] } },
{ "type": "Feature", "id": 25, "properties": { "code": "80533", "id": 25, "metadata": "https://geocatalogue.hautsdefrance.fr/geonetwork/srv/fre/catalog.search#/metadata/894a0a8d-5ac9-469c-a12b-7f40ca4a7a3a", "nom": "MERS-LES-BAINS", "nom_min": "Mers-les-Bains" }, "geometry": { "type": "Point", "coordinates": [ 1.405021, 50.070583 ] } },
{ "type": "Feature", "id": 26, "properties": { "code": "80308", "id": 26, "metadata": "https://geocatalogue.hautsdefrance.fr/geonetwork/srv/fre/catalog.search#/metadata/894a0a8d-5ac9-469c-a12b-7f40ca4a7a3a", "nom": "FEUQUIÈRES-EN-VIMEU", "nom_min": "Feuquières-en-Vimeu" }, "geometry": { "type": "Point", "coordinates": [ 1.602971, 50.058832 ] } },
{ "type": "Feature", "id": 27, "properties": { "code": "80368", "id": 27, "metadata": "https://geocatalogue.hautsdefrance.fr/geonetwork/srv/fre/catalog.search#/metadata/894a0a8d-5ac9-469c-a12b-7f40ca4a7a3a", "nom": "FRIVILLE-ESCARBOTIN", "nom_min": "Friville-Escarbotin" }, "geometry": { "type": "Point", "coordinates": [ 1.544003, 50.086787 ] } },
{ "type": "Feature", "id": 28, "properties": { "code": "80606", "id": 28, "metadata": "https://geocatalogue.hautsdefrance.fr/geonetwork/srv/fre/catalog.search#/metadata/894a0a8d-5ac9-469c-a12b-7f40ca4a7a3a", "nom": "OISEMONT", "nom_min": "Oisemont" }, "geometry": { "type": "Point", "coordinates": [ 1.759884, 49.955701 ] } },
{ "type": "Feature", "id": 29, "properties": { "code": "80620", "id": 29, "metadata": "https://geocatalogue.hautsdefrance.fr/geonetwork/srv/fre/catalog.search#/metadata/894a0a8d-5ac9-469c-a12b-7f40ca4a7a3a", "nom": "PÉRONNE", "nom_min": "Péronne" }, "geometry": { "type": "Point", "coordinates": [ 2.929295, 49.928145 ] } },
{ "type": "Feature", "id": 30, "properties": { "code": "80570", "id": 30, "metadata": "https://geocatalogue.hautsdefrance.fr/geonetwork/srv/fre/catalog.search#/metadata/894a0a8d-5ac9-469c-a12b-7f40ca4a7a3a", "nom": "MOREUIL", "nom_min": "Moreuil" }, "geometry": { "type": "Point", "coordinates": [ 2.484109, 49.776138 ] } },
{ "type": "Feature", "id": 31, "properties": { "code": "80585", "id": 31, "metadata": "https://geocatalogue.hautsdefrance.fr/geonetwork/srv/fre/catalog.search#/metadata/894a0a8d-5ac9-469c-a12b-7f40ca4a7a3a", "nom": "NESLE", "nom_min": "Nesle" }, "geometry": { "type": "Point", "coordinates": [ 2.910424, 49.75986 ] } },
{ "type": "Feature", "id": 32, "properties": { "code": "80688", "id": 32, "metadata": "https://geocatalogue.hautsdefrance.fr/geonetwork/srv/fre/catalog.search#/metadata/894a0a8d-5ac9-469c-a12b-7f40ca4a7a3a", "nom": "RUE", "nom_min": "Rue" }, "geometry": { "type": "Point", "coordinates": [ 1.665016, 50.278559 ] } },
{ "type": "Feature", "id": 33, "properties": { "code": "80721", "id": 33, "metadata": "https://geocatalogue.hautsdefrance.fr/geonetwork/srv/fre/catalog.search#/metadata/894a0a8d-5ac9-469c-a12b-7f40ca4a7a3a", "nom": "SAINT-VALERY-SUR-SOMME", "nom_min": "Saint-Valery-sur-Somme" }, "geometry": { "type": "Point", "coordinates": [ 1.622617, 50.176101 ] } },
{ "type": "Feature", "id": 34, "properties": { "code": "80630", "id": 34, "metadata": "https://geocatalogue.hautsdefrance.fr/geonetwork/srv/fre/catalog.search#/metadata/894a0a8d-5ac9-469c-a12b-7f40ca4a7a3a", "nom": "POIX-DE-PICARDIE", "nom_min": "Poix-de-Picardie" }, "geometry": { "type": "Point", "coordinates": [ 1.979395, 49.747873 ] } },
{ "type": "Feature", "id": 35, "properties": { "code": "80685", "id": 35, "metadata": "https://geocatalogue.hautsdefrance.fr/geonetwork/srv/fre/catalog.search#/metadata/894a0a8d-5ac9-469c-a12b-7f40ca4a7a3a", "nom": "ROYE", "nom_min": "Roye" }, "geometry": { "type": "Point", "coordinates": [ 2.78906, 49.693541 ] } },
{ "type": "Feature", "id": 36, "properties": { "code": "02095", "id": 36, "metadata": "https://geocatalogue.hautsdefrance.fr/geonetwork/srv/fre/catalog.search#/metadata/894a0a8d-5ac9-469c-a12b-7f40ca4a7a3a", "nom": "BOHAIN-EN-VERMANDOIS", "nom_min": "Bohain-en-Vermandois" }, "geometry": { "type": "Point", "coordinates": [ 3.465012, 49.989027 ] } },
{ "type": "Feature", "id": 37, "properties": { "code": "02110", "id": 37, "metadata": "https://geocatalogue.hautsdefrance.fr/geonetwork/srv/fre/catalog.search#/metadata/894a0a8d-5ac9-469c-a12b-7f40ca4a7a3a", "nom": "BRAINE", "nom_min": "Braine" }, "geometry": { "type": "Point", "coordinates": [ 3.536762, 49.348519 ] } },
{ "type": "Feature", "id": 38, "properties": { "code": "02018", "id": 38, "metadata": "https://geocatalogue.hautsdefrance.fr/geonetwork/srv/fre/catalog.search#/metadata/894a0a8d-5ac9-469c-a12b-7f40ca4a7a3a", "nom": "ANIZY-LE-GRAND", "nom_min": "Anizy-le-Grand" }, "geometry": { "type": "Point", "coordinates": [ 3.453024, 49.516096 ] } },
{ "type": "Feature", "id": 39, "properties": { "code": "02304", "id": 39, "metadata": "https://geocatalogue.hautsdefrance.fr/geonetwork/srv/fre/catalog.search#/metadata/894a0a8d-5ac9-469c-a12b-7f40ca4a7a3a", "nom": "LA FÈRE", "nom_min": "La Fère" }, "geometry": { "type": "Point", "coordinates": [ 3.369302, 49.667254 ] } },
{ "type": "Feature", "id": 40, "properties": { "code": "02305", "id": 40, "metadata": "https://geocatalogue.hautsdefrance.fr/geonetwork/srv/fre/catalog.search#/metadata/894a0a8d-5ac9-469c-a12b-7f40ca4a7a3a", "nom": "FÈRE-EN-TARDENOIS", "nom_min": "Fère-en-Tardenois" }, "geometry": { "type": "Point", "coordinates": [ 3.511008, 49.187254 ] } },
{ "type": "Feature", "id": 41, "properties": { "code": "02141", "id": 41, "metadata": "https://geocatalogue.hautsdefrance.fr/geonetwork/srv/fre/catalog.search#/metadata/894a0a8d-5ac9-469c-a12b-7f40ca4a7a3a", "nom": "LA CAPELLE", "nom_min": "La Capelle" }, "geometry": { "type": "Point", "coordinates": [ 3.913303, 49.973534 ] } },
{ "type": "Feature", "id": 42, "properties": { "code": "02173", "id": 42, "metadata": "https://geocatalogue.hautsdefrance.fr/geonetwork/srv/fre/catalog.search#/metadata/894a0a8d-5ac9-469c-a12b-7f40ca4a7a3a", "nom": "CHAUNY", "nom_min": "Chauny" }, "geometry": { "type": "Point", "coordinates": [ 3.219143, 49.619538 ] } },
{ "type": "Feature", "id": 43, "properties": { "code": "02360", "id": 43, "metadata": "https://geocatalogue.hautsdefrance.fr/geonetwork/srv/fre/catalog.search#/metadata/894a0a8d-5ac9-469c-a12b-7f40ca4a7a3a", "nom": "VILLENEUVE-SUR-AISNE", "nom_min": "Villeneuve-sur-Aisne" }, "geometry": { "type": "Point", "coordinates": [ 3.971298, 49.43946 ] } },
{ "type": "Feature", "id": 44, "properties": { "code": "02381", "id": 44, "metadata": "https://geocatalogue.hautsdefrance.fr/geonetwork/srv/fre/catalog.search#/metadata/894a0a8d-5ac9-469c-a12b-7f40ca4a7a3a", "nom": "HIRSON", "nom_min": "Hirson" }, "geometry": { "type": "Point", "coordinates": [ 4.104775, 49.942796 ] } },
{ "type": "Feature", "id": 45, "properties": { "code": "02307", "id": 45, "metadata": "https://geocatalogue.hautsdefrance.fr/geonetwork/srv/fre/catalog.search#/metadata/894a0a8d-5ac9-469c-a12b-7f40ca4a7a3a", "nom": "LA FERTÉ-MILON", "nom_min": "La Ferté-Milon" }, "geometry": { "type": "Point", "coordinates": [ 3.142645, 49.176035 ] } },
{ "type": "Feature", "id": 46, "properties": { "code": "02334", "id": 46, "metadata": "https://geocatalogue.hautsdefrance.fr/geonetwork/srv/fre/catalog.search#/metadata/894a0a8d-5ac9-469c-a12b-7f40ca4a7a3a", "nom": "FRESNOY-LE-GRAND", "nom_min": "Fresnoy-le-Grand" }, "geometry": { "type": "Point", "coordinates": [ 3.418856, 49.953816 ] } },
{ "type": "Feature", "id": 47, "properties": { "code": "02502", "id": 47, "metadata": "https://geocatalogue.hautsdefrance.fr/geonetwork/srv/fre/catalog.search#/metadata/894a0a8d-5ac9-469c-a12b-7f40ca4a7a3a", "nom": "MONTCORNET", "nom_min": "Montcornet" }, "geometry": { "type": "Point", "coordinates": [ 4.029356, 49.68849 ] } },
{ "type": "Feature", "id": 48, "properties": { "code": "02543", "id": 48, "metadata": "https://geocatalogue.hautsdefrance.fr/geonetwork/srv/fre/catalog.search#/metadata/894a0a8d-5ac9-469c-a12b-7f40ca4a7a3a", "nom": "NEUILLY-SAINT-FRONT", "nom_min": "Neuilly-Saint-Front" }, "geometry": { "type": "Point", "coordinates": [ 3.264262, 49.162855 ] } },
{ "type": "Feature", "id": 49, "properties": { "code": "02430", "id": 49, "metadata": "https://geocatalogue.hautsdefrance.fr/geonetwork/srv/fre/catalog.search#/metadata/894a0a8d-5ac9-469c-a12b-7f40ca4a7a3a", "nom": "LIESSE-NOTRE-DAME", "nom_min": "Liesse-Notre-Dame" }, "geometry": { "type": "Point", "coordinates": [ 3.816899, 49.610586 ] } },
{ "type": "Feature", "id": 50, "properties": { "code": "02468", "id": 50, "metadata": "https://geocatalogue.hautsdefrance.fr/geonetwork/srv/fre/catalog.search#/metadata/894a0a8d-5ac9-469c-a12b-7f40ca4a7a3a", "nom": "MARLE", "nom_min": "Marle" }, "geometry": { "type": "Point", "coordinates": [ 3.764715, 49.745503 ] } },
{ "type": "Feature", "id": 51, "properties": { "code": "02648", "id": 51, "metadata": "https://geocatalogue.hautsdefrance.fr/geonetwork/srv/fre/catalog.search#/metadata/894a0a8d-5ac9-469c-a12b-7f40ca4a7a3a", "nom": "RIBEMONT", "nom_min": "Ribemont" }, "geometry": { "type": "Point", "coordinates": [ 3.470648, 49.788626 ] } },
{ "type": "Feature", "id": 52, "properties": { "code": "02666", "id": 52, "metadata": "https://geocatalogue.hautsdefrance.fr/geonetwork/srv/fre/catalog.search#/metadata/894a0a8d-5ac9-469c-a12b-7f40ca4a7a3a", "nom": "ROZOY-SUR-SERRE", "nom_min": "Rozoy-sur-Serre" }, "geometry": { "type": "Point", "coordinates": [ 4.131293, 49.706453 ] } },
{ "type": "Feature", "id": 53, "properties": { "code": "02558", "id": 53, "metadata": "https://geocatalogue.hautsdefrance.fr/geonetwork/srv/fre/catalog.search#/metadata/894a0a8d-5ac9-469c-a12b-7f40ca4a7a3a", "nom": "LE NOUVION-EN-THIÉRACHE", "nom_min": "Le Nouvion-en-Thiérache" }, "geometry": { "type": "Point", "coordinates": [ 3.809369, 50.008568 ] } },
{ "type": "Feature", "id": 54, "properties": { "code": "02602", "id": 54, "metadata": "https://geocatalogue.hautsdefrance.fr/geonetwork/srv/fre/catalog.search#/metadata/894a0a8d-5ac9-469c-a12b-7f40ca4a7a3a", "nom": "PINON", "nom_min": "Pinon" }, "geometry": { "type": "Point", "coordinates": [ 3.46206, 49.488492 ] } },
{ "type": "Feature", "id": 55, "properties": { "code": "02758", "id": 55, "metadata": "https://geocatalogue.hautsdefrance.fr/geonetwork/srv/fre/catalog.search#/metadata/894a0a8d-5ac9-469c-a12b-7f40ca4a7a3a", "nom": "VAILLY-SUR-AISNE", "nom_min": "Vailly-sur-Aisne" }, "geometry": { "type": "Point", "coordinates": [ 3.520828, 49.411148 ] } },
{ "type": "Feature", "id": 56, "properties": { "code": "02789", "id": 56, "metadata": "https://geocatalogue.hautsdefrance.fr/geonetwork/srv/fre/catalog.search#/metadata/894a0a8d-5ac9-469c-a12b-7f40ca4a7a3a", "nom": "VERVINS", "nom_min": "Vervins" }, "geometry": { "type": "Point", "coordinates": [ 3.924697, 49.835227 ] } },
{ "type": "Feature", "id": 57, "properties": { "code": "02720", "id": 57, "metadata": "https://geocatalogue.hautsdefrance.fr/geonetwork/srv/fre/catalog.search#/metadata/894a0a8d-5ac9-469c-a12b-7f40ca4a7a3a", "nom": "SISSONNE", "nom_min": "Sissonne" }, "geometry": { "type": "Point", "coordinates": [ 3.920381, 49.564139 ] } },
{ "type": "Feature", "id": 58, "properties": { "code": "02738", "id": 58, "metadata": "https://geocatalogue.hautsdefrance.fr/geonetwork/srv/fre/catalog.search#/metadata/894a0a8d-5ac9-469c-a12b-7f40ca4a7a3a", "nom": "TERGNIER", "nom_min": "Tergnier" }, "geometry": { "type": "Point", "coordinates": [ 3.299611, 49.656816 ] } },
{ "type": "Feature", "id": 59, "properties": { "code": "59035", "id": 59, "metadata": "https://geocatalogue.hautsdefrance.fr/geonetwork/srv/fre/catalog.search#/metadata/894a0a8d-5ac9-469c-a12b-7f40ca4a7a3a", "nom": "AVESNELLES", "nom_min": "Avesnelles" }, "geometry": { "type": "Point", "coordinates": [ 3.951292, 50.106002 ] } },
{ "type": "Feature", "id": 60, "properties": { "code": "59043", "id": 60, "metadata": "https://geocatalogue.hautsdefrance.fr/geonetwork/srv/fre/catalog.search#/metadata/894a0a8d-5ac9-469c-a12b-7f40ca4a7a3a", "nom": "BAILLEUL", "nom_min": "Bailleul" }, "geometry": { "type": "Point", "coordinates": [ 2.737579, 50.727431 ] } },
{ "type": "Feature", "id": 61, "properties": { "code": "59008", "id": 61, "metadata": "https://geocatalogue.hautsdefrance.fr/geonetwork/srv/fre/catalog.search#/metadata/894a0a8d-5ac9-469c-a12b-7f40ca4a7a3a", "nom": "ANICHE", "nom_min": "Aniche" }, "geometry": { "type": "Point", "coordinates": [ 3.25584, 50.330759 ] } },
{ "type": "Feature", "id": 62, "properties": { "code": "59015", "id": 62, "metadata": "https://geocatalogue.hautsdefrance.fr/geonetwork/srv/fre/catalog.search#/metadata/894a0a8d-5ac9-469c-a12b-7f40ca4a7a3a", "nom": "ARLEUX", "nom_min": "Arleux" }, "geometry": { "type": "Point", "coordinates": [ 3.112761, 50.281847 ] } },
{ "type": "Feature", "id": 63, "properties": { "code": "59139", "id": 63, "metadata": "https://geocatalogue.hautsdefrance.fr/geonetwork/srv/fre/catalog.search#/metadata/894a0a8d-5ac9-469c-a12b-7f40ca4a7a3a", "nom": "CAUDRY", "nom_min": "Caudry" }, "geometry": { "type": "Point", "coordinates": [ 3.418762, 50.119151 ] } },
{ "type": "Feature", "id": 64, "properties": { "code": "59153", "id": 64, "metadata": "https://geocatalogue.hautsdefrance.fr/geonetwork/srv/fre/catalog.search#/metadata/894a0a8d-5ac9-469c-a12b-7f40ca4a7a3a", "nom": "CONDÉ-SUR-L'ESCAUT", "nom_min": "Condé-sur-l'Escaut" }, "geometry": { "type": "Point", "coordinates": [ 3.605823, 50.46738 ] } },
{ "type": "Feature", "id": 65, "properties": { "code": "59053", "id": 65, "metadata": "https://geocatalogue.hautsdefrance.fr/geonetwork/srv/fre/catalog.search#/metadata/894a0a8d-5ac9-469c-a12b-7f40ca4a7a3a", "nom": "BAVAY", "nom_min": "Bavay" }, "geometry": { "type": "Point", "coordinates": [ 3.802756, 50.293419 ] } },
{ "type": "Feature", "id": 66, "properties": { "code": "59094", "id": 66, "metadata": "https://geocatalogue.hautsdefrance.fr/geonetwork/srv/fre/catalog.search#/metadata/894a0a8d-5ac9-469c-a12b-7f40ca4a7a3a", "nom": "BOURBOURG", "nom_min": "Bourbourg" }, "geometry": { "type": "Point", "coordinates": [ 2.203563, 50.942531 ] } },
{ "type": "Feature", "id": 67, "properties": { "code": "59400", "id": 67, "metadata": "https://geocatalogue.hautsdefrance.fr/geonetwork/srv/fre/catalog.search#/metadata/894a0a8d-5ac9-469c-a12b-7f40ca4a7a3a", "nom": "MERVILLE", "nom_min": "Merville" }, "geometry": { "type": "Point", "coordinates": [ 2.63564, 50.645386 ] } },
{ "type": "Feature", "id": 68, "properties": { "code": "59431", "id": 68, "metadata": "https://geocatalogue.hautsdefrance.fr/geonetwork/srv/fre/catalog.search#/metadata/894a0a8d-5ac9-469c-a12b-7f40ca4a7a3a", "nom": "NIEPPE", "nom_min": "Nieppe" }, "geometry": { "type": "Point", "coordinates": [ 2.832887, 50.699034 ] } },
{ "type": "Feature", "id": 69, "properties": { "code": "59239", "id": 69, "metadata": "https://geocatalogue.hautsdefrance.fr/geonetwork/srv/fre/catalog.search#/metadata/894a0a8d-5ac9-469c-a12b-7f40ca4a7a3a", "nom": "FLINES-LEZ-RACHES", "nom_min": "Flines-lez-Raches" }, "geometry": { "type": "Point", "coordinates": [ 3.182021, 50.417046 ] } },
{ "type": "Feature", "id": 70, "properties": { "code": "59331", "id": 70, "metadata": "https://geocatalogue.hautsdefrance.fr/geonetwork/srv/fre/catalog.search#/metadata/894a0a8d-5ac9-469c-a12b-7f40ca4a7a3a", "nom": "LANDRECIES", "nom_min": "Landrecies" }, "geometry": { "type": "Point", "coordinates": [ 3.688881, 50.12016 ] } },
{ "type": "Feature", "id": 71, "properties": { "code": "59481", "id": 71, "metadata": "https://geocatalogue.hautsdefrance.fr/geonetwork/srv/fre/catalog.search#/metadata/894a0a8d-5ac9-469c-a12b-7f40ca4a7a3a", "nom": "LE QUESNOY", "nom_min": "Le Quesnoy" }, "geometry": { "type": "Point", "coordinates": [ 3.62402, 50.250588 ] } },
{ "type": "Feature", "id": 72, "properties": { "code": "59525", "id": 72, "metadata": "https://geocatalogue.hautsdefrance.fr/geonetwork/srv/fre/catalog.search#/metadata/894a0a8d-5ac9-469c-a12b-7f40ca4a7a3a", "nom": "SAINS-DU-NORD", "nom_min": "Sains-du-Nord" }, "geometry": { "type": "Point", "coordinates": [ 4.031659, 50.085453 ] } },
{ "type": "Feature", "id": 73, "properties": { "code": "59449", "id": 73, "metadata": "https://geocatalogue.hautsdefrance.fr/geonetwork/srv/fre/catalog.search#/metadata/894a0a8d-5ac9-469c-a12b-7f40ca4a7a3a", "nom": "ORCHIES", "nom_min": "Orchies" }, "geometry": { "type": "Point", "coordinates": [ 3.239056, 50.468758 ] } },
{ "type": "Feature", "id": 74, "properties": { "code": "59466", "id": 74, "metadata": "https://geocatalogue.hautsdefrance.fr/geonetwork/srv/fre/catalog.search#/metadata/894a0a8d-5ac9-469c-a12b-7f40ca4a7a3a", "nom": "PONT-À-MARCQ", "nom_min": "Pont-à-Marcq" }, "geometry": { "type": "Point", "coordinates": [ 3.115057, 50.521542 ] } },
{ "type": "Feature", "id": 75, "properties": { "code": "59586", "id": 75, "metadata": "https://geocatalogue.hautsdefrance.fr/geonetwork/srv/fre/catalog.search#/metadata/894a0a8d-5ac9-469c-a12b-7f40ca4a7a3a", "nom": "TEMPLEUVE-EN-PÉVÈLE", "nom_min": "Templeuve-en-Pévèle" }, "geometry": { "type": "Point", "coordinates": [ 3.173387, 50.532534 ] } },
{ "type": "Feature", "id": 76, "properties": { "code": "59653", "id": 76, "metadata": "https://geocatalogue.hautsdefrance.fr/geonetwork/srv/fre/catalog.search#/metadata/894a0a8d-5ac9-469c-a12b-7f40ca4a7a3a", "nom": "WAVRIN", "nom_min": "Wavrin" }, "geometry": { "type": "Point", "coordinates": [ 2.933087, 50.572517 ] } },
{ "type": "Feature", "id": 77, "properties": { "code": "59571", "id": 77, "metadata": "https://geocatalogue.hautsdefrance.fr/geonetwork/srv/fre/catalog.search#/metadata/894a0a8d-5ac9-469c-a12b-7f40ca4a7a3a", "nom": "SOLESMES", "nom_min": "Solesmes" }, "geometry": { "type": "Point", "coordinates": [ 3.519562, 50.172173 ] } },
{ "type": "Feature", "id": 78, "properties": { "code": "59580", "id": 78, "metadata": "https://geocatalogue.hautsdefrance.fr/geonetwork/srv/fre/catalog.search#/metadata/894a0a8d-5ac9-469c-a12b-7f40ca4a7a3a", "nom": "STEENVOORDE", "nom_min": "Steenvoorde" }, "geometry": { "type": "Point", "coordinates": [ 2.585453, 50.821495 ] } },
{ "type": "Feature", "id": 79, "properties": { "code": "60139", "id": 79, "metadata": "https://geocatalogue.hautsdefrance.fr/geonetwork/srv/fre/catalog.search#/metadata/894a0a8d-5ac9-469c-a12b-7f40ca4a7a3a", "nom": "CHAMBLY", "nom_min": "Chambly" }, "geometry": { "type": "Point", "coordinates": [ 2.246194, 49.171726 ] } },
{ "type": "Feature", "id": 80, "properties": { "code": "60141", "id": 80, "metadata": "https://geocatalogue.hautsdefrance.fr/geonetwork/srv/fre/catalog.search#/metadata/894a0a8d-5ac9-469c-a12b-7f40ca4a7a3a", "nom": "CHANTILLY", "nom_min": "Chantilly" }, "geometry": { "type": "Point", "coordinates": [ 2.481195, 49.176354 ] } },
{ "type": "Feature", "id": 81, "properties": { "code": "60029", "id": 81, "metadata": "https://geocatalogue.hautsdefrance.fr/geonetwork/srv/fre/catalog.search#/metadata/894a0a8d-5ac9-469c-a12b-7f40ca4a7a3a", "nom": "AUNEUIL", "nom_min": "Auneuil" }, "geometry": { "type": "Point", "coordinates": [ 1.988485, 49.372522 ] } },
{ "type": "Feature", "id": 82, "properties": { "code": "60103", "id": 82, "metadata": "https://geocatalogue.hautsdefrance.fr/geonetwork/srv/fre/catalog.search#/metadata/894a0a8d-5ac9-469c-a12b-7f40ca4a7a3a", "nom": "BRESLES", "nom_min": "Bresles" }, "geometry": { "type": "Point", "coordinates": [ 2.250314, 49.413871 ] } },
{ "type": "Feature", "id": 83, "properties": { "code": "60188", "id": 83, "metadata": "https://geocatalogue.hautsdefrance.fr/geonetwork/srv/fre/catalog.search#/metadata/894a0a8d-5ac9-469c-a12b-7f40ca4a7a3a", "nom": "CUISE-LA-MOTTE", "nom_min": "Cuise-la-Motte" }, "geometry": { "type": "Point", "coordinates": [ 2.999876, 49.385807 ] } },
{ "type": "Feature", "id": 84, "properties": { "code": "60286", "id": 84, "metadata": "https://geocatalogue.hautsdefrance.fr/geonetwork/srv/fre/catalog.search#/metadata/894a0a8d-5ac9-469c-a12b-7f40ca4a7a3a", "nom": "GRANDVILLIERS", "nom_min": "Grandvilliers" }, "geometry": { "type": "Point", "coordinates": [ 1.935274, 49.666226 ] } },
{ "type": "Feature", "id": 85, "properties": { "code": "60176", "id": 85, "metadata": "https://geocatalogue.hautsdefrance.fr/geonetwork/srv/fre/catalog.search#/metadata/894a0a8d-5ac9-469c-a12b-7f40ca4a7a3a", "nom": "CRÉPY-EN-VALOIS", "nom_min": "Crépy-en-Valois" }, "geometry": { "type": "Point", "coordinates": [ 2.896805, 49.236028 ] } },
{ "type": "Feature", "id": 86, "properties": { "code": "60178", "id": 86, "metadata": "https://geocatalogue.hautsdefrance.fr/geonetwork/srv/fre/catalog.search#/metadata/894a0a8d-5ac9-469c-a12b-7f40ca4a7a3a", "nom": "CRÈVECŒUR-LE-GRAND", "nom_min": "Crèvecœur-le-Grand" }, "geometry": { "type": "Point", "coordinates": [ 2.085099, 49.612903 ] } },
{ "type": "Feature", "id": 87, "properties": { "code": "60439", "id": 87, "metadata": "https://geocatalogue.hautsdefrance.fr/geonetwork/srv/fre/catalog.search#/metadata/894a0a8d-5ac9-469c-a12b-7f40ca4a7a3a", "nom": "MOUY", "nom_min": "Mouy" }, "geometry": { "type": "Point", "coordinates": [ 2.300705, 49.317021 ] } },
{ "type": "Feature", "id": 88, "properties": { "code": "60471", "id": 88, "metadata": "https://geocatalogue.hautsdefrance.fr/geonetwork/srv/fre/catalog.search#/metadata/894a0a8d-5ac9-469c-a12b-7f40ca4a7a3a", "nom": "NOYON", "nom_min": "Noyon" }, "geometry": { "type": "Point", "coordinates": [ 3.008187, 49.577914 ] } },
{ "type": "Feature", "id": 89, "properties": { "code": "60333", "id": 89, "metadata": "https://geocatalogue.hautsdefrance.fr/geonetwork/srv/fre/catalog.search#/metadata/894a0a8d-5ac9-469c-a12b-7f40ca4a7a3a", "nom": "LACHAPELLE-AUX-POTS", "nom_min": "Lachapelle-aux-Pots" }, "geometry": { "type": "Point", "coordinates": [ 1.921721, 49.44707 ] } },
{ "type": "Feature", "id": 90, "properties": { "code": "60346", "id": 90, "metadata": "https://geocatalogue.hautsdefrance.fr/geonetwork/srv/fre/catalog.search#/metadata/894a0a8d-5ac9-469c-a12b-7f40ca4a7a3a", "nom": "LAMORLAYE", "nom_min": "Lamorlaye" }, "geometry": { "type": "Point", "coordinates": [ 2.419515, 49.160254 ] } },
{ "type": "Feature", "id": 91, "properties": { "code": "60667", "id": 91, "metadata": "https://geocatalogue.hautsdefrance.fr/geonetwork/srv/fre/catalog.search#/metadata/894a0a8d-5ac9-469c-a12b-7f40ca4a7a3a", "nom": "VERBERIE", "nom_min": "Verberie" }, "geometry": { "type": "Point", "coordinates": [ 2.733545, 49.305618 ] } },
{ "type": "Feature", "id": 92, "properties": { "code": "62014", "id": 92, "metadata": "https://geocatalogue.hautsdefrance.fr/geonetwork/srv/fre/catalog.search#/metadata/894a0a8d-5ac9-469c-a12b-7f40ca4a7a3a", "nom": "AIRE-SUR-LA-LYS", "nom_min": "Aire-sur-la-Lys" }, "geometry": { "type": "Point", "coordinates": [ 2.395504, 50.64431 ] } },
{ "type": "Feature", "id": 93, "properties": { "code": "60509", "id": 93, "metadata": "https://geocatalogue.hautsdefrance.fr/geonetwork/srv/fre/catalog.search#/metadata/894a0a8d-5ac9-469c-a12b-7f40ca4a7a3a", "nom": "PONT-SAINTE-MAXENCE", "nom_min": "Pont-Sainte-Maxence" }, "geometry": { "type": "Point", "coordinates": [ 2.608603, 49.304776 ] } },
{ "type": "Feature", "id": 94, "properties": { "code": "60577", "id": 94, "metadata": "https://geocatalogue.hautsdefrance.fr/geonetwork/srv/fre/catalog.search#/metadata/894a0a8d-5ac9-469c-a12b-7f40ca4a7a3a", "nom": "SAINT-GERMER-DE-FLY", "nom_min": "Saint-Germer-de-Fly" }, "geometry": { "type": "Point", "coordinates": [ 1.782146, 49.44163 ] } },
{ "type": "Feature", "id": 95, "properties": { "code": "62060", "id": 95, "metadata": "https://geocatalogue.hautsdefrance.fr/geonetwork/srv/fre/catalog.search#/metadata/894a0a8d-5ac9-469c-a12b-7f40ca4a7a3a", "nom": "AUXI-LE-CHÂTEAU", "nom_min": "Auxi-le-Château" }, "geometry": { "type": "Point", "coordinates": [ 2.117051, 50.230865 ] } },
{ "type": "Feature", "id": 96, "properties": { "code": "62063", "id": 96, "metadata": "https://geocatalogue.hautsdefrance.fr/geonetwork/srv/fre/catalog.search#/metadata/894a0a8d-5ac9-469c-a12b-7f40ca4a7a3a", "nom": "AVESNES-LE-COMTE", "nom_min": "Avesnes-le-Comte" }, "geometry": { "type": "Point", "coordinates": [ 2.528516, 50.271923 ] } },
{ "type": "Feature", "id": 97, "properties": { "code": "62048", "id": 97, "metadata": "https://geocatalogue.hautsdefrance.fr/geonetwork/srv/fre/catalog.search#/metadata/894a0a8d-5ac9-469c-a12b-7f40ca4a7a3a", "nom": "AUCHEL", "nom_min": "Auchel" }, "geometry": { "type": "Point", "coordinates": [ 2.468584, 50.510308 ] } },
{ "type": "Feature", "id": 98, "properties": { "code": "62057", "id": 98, "metadata": "https://geocatalogue.hautsdefrance.fr/geonetwork/srv/fre/catalog.search#/metadata/894a0a8d-5ac9-469c-a12b-7f40ca4a7a3a", "nom": "AUDRUICQ", "nom_min": "Audruicq" }, "geometry": { "type": "Point", "coordinates": [ 2.081425, 50.884508 ] } },
{ "type": "Feature", "id": 99, "properties": { "code": "62194", "id": 99, "metadata": "https://geocatalogue.hautsdefrance.fr/geonetwork/srv/fre/catalog.search#/metadata/894a0a8d-5ac9-469c-a12b-7f40ca4a7a3a", "nom": "CALONNE-RICOUART", "nom_min": "Calonne-Ricouart" }, "geometry": { "type": "Point", "coordinates": [ 2.486142, 50.489684 ] } },
{ "type": "Feature", "id": 100, "properties": { "code": "62268", "id": 100, "metadata": "https://geocatalogue.hautsdefrance.fr/geonetwork/srv/fre/catalog.search#/metadata/894a0a8d-5ac9-469c-a12b-7f40ca4a7a3a", "nom": "DESVRES", "nom_min": "Desvres" }, "geometry": { "type": "Point", "coordinates": [ 1.829238, 50.67467 ] } },
{ "type": "Feature", "id": 101, "properties": { "code": "62080", "id": 101, "metadata": "https://geocatalogue.hautsdefrance.fr/geonetwork/srv/fre/catalog.search#/metadata/894a0a8d-5ac9-469c-a12b-7f40ca4a7a3a", "nom": "BAPAUME", "nom_min": "Bapaume" }, "geometry": { "type": "Point", "coordinates": [ 2.856155, 50.100752 ] } },
{ "type": "Feature", "id": 102, "properties": { "code": "62186", "id": 102, "metadata": "https://geocatalogue.hautsdefrance.fr/geonetwork/srv/fre/catalog.search#/metadata/894a0a8d-5ac9-469c-a12b-7f40ca4a7a3a", "nom": "BULLY-LES-MINES", "nom_min": "Bully-les-Mines" }, "geometry": { "type": "Point", "coordinates": [ 2.719292, 50.44538 ] } },
{ "type": "Feature", "id": 103, "properties": { "code": "62397", "id": 103, "metadata": "https://geocatalogue.hautsdefrance.fr/geonetwork/srv/fre/catalog.search#/metadata/894a0a8d-5ac9-469c-a12b-7f40ca4a7a3a", "nom": "GUÎNES", "nom_min": "Guînes" }, "geometry": { "type": "Point", "coordinates": [ 1.870393, 50.858206 ] } }
]
}
